City_ID,City,Lat,Lng,Max Temp,Humidity,Cloudiness,Wind Speed,Country,Date
0,sinop,41.7711,34.8709,10.13,90,40,1.08,TR,1684449002
1,cabitan,12.2943,123.3412,28.32,74,96,2.41,PH,1684449003
2,jamestown,42.097,-79.2353,20.85,28,0,2.57,US,1684448784
3,castro,-24.7911,-50.0119,11.73,74,0,0.87,BR,1684449005
4,sydney mines,46.2367,-60.2177,8.33,47,20,8.23,CA,1684449005
5,busselton,-33.65,115.3333,13.79,76,36,4.12,AU,1684449006
6,portland,45.5234,-122.6762,29.34,51,20,3.13,US,1684448876
7,bonfim,3.0833,-59.95,26.49,81,100,0.94,BR,1684449007
8,resistencia,-27.4606,-58.9839,23.03,76,0,1.54,AR,1684449008
9,cape town,-33.9258,18.4232,15.21,69,0,6.17,ZA,1684448770
10,puerto ayora,-0.7393,-90.3518,29.98,89,87,4.47,EC,1684448775
11,andenes,69.3143,16.1194,6.99,81,100,6.17,NO,1684449010
12,rikitea,-23.1203,-134.9692,24.19,82,86,4.89,PF,1684449011
13,hithadhoo,-0.6,73.0833,27.99,78,44,3.63,MV,1684449011
14,nikolskoye,59.7035,30.7861,7.94,93,53,2.04,RU,1684449013
15,kawalu,-7.3817,108.2082,21.55,96,99,0.54,ID,1684449014
16,vaini,-21.2,-175.2,28.09,74,75,8.23,TO,1684449014
17,airai,-8.9266,125.4092,15.03,83,70,1.6,TL,1684449016
18,namie,37.4833,141.0,22.06,76,100,2.89,JP,1684449017
19,port alfred,-33.5906,26.891,11.21,94,9,2.24,ZA,1684448962
20,ustye,59.6304,39.736,9.11,91,100,1.09,RU,1684449018
21,yellowknife,62.456,-114.3525,16.29,41,75,4.63,CA,1684448978
22,avarua,-21.2078,-159.775,26.03,69,20,4.63,CK,1684448756
23,hobart,-42.8794,147.3294,7.25,92,75,2.57,AU,1684449020
24,chalon-sur-saone,46.7833,4.85,8.83,86,51,2.84,FR,1684449021
25,adrar,20.5022,-10.0711,26.0,17,10,5.75,MR,1684449021
26,punta arenas,-53.15,-70.9167,3.06,81,20,5.66,CL,1684449022
27,margate,51.3813,1.3862,9.61,77,6,2.24,GB,1684448808
28,carnarvon,-24.8667,113.6333,22.17,46,47,5.96,AU,1684448975
29,ushuaia,-54.8,-68.3,1.81,75,20,0.51,AR,1684448736
30,dingle,10.9995,122.6711,26.99,82,92,0.22,PH,1684449025
31,atuona,-9.8,-139.0333,27.18,78,16,6.9,PF,1684449025
32,sertania,-8.0736,-37.2644,22.34,84,100,2.76,BR,1684449026
33,bukachacha,52.9833,116.9167,10.79,39,96,4.23,RU,1684449026
34,taoudenni,22.6783,-3.9836,30.37,11,28,4.64,ML,1684448989
35,veraval,20.9,70.3667,27.5,84,0,5.59,IN,1684449027
36,bengkulu,-3.8004,102.2655,24.07,91,96,1.71,ID,1684449028
37,costesti,44.6667,24.8833,13.57,72,78,3.46,RO,1684449029
38,port hardy,50.6996,-127.4199,16.1,77,75,5.66,CA,1684449029
39,puerto escondido,15.85,-97.0667,32.46,62,40,3.6,MX,1684449030
40,dudinka,69.4058,86.1778,2.57,100,100,8.1,RU,1684448835
41,mataura,-46.1927,168.8643,8.24,94,100,0.4,NZ,1684449031
42,kapaa,22.0752,-159.319,23.18,89,100,4.63,US,1684448744
43,mamakan,57.8161,114.0028,5.57,82,96,1.03,RU,1684449032
44,karpathos,35.507,27.2132,17.98,88,2,0.51,GR,1684449033
45,new norfolk,-42.7826,147.0587,7.06,74,81,0.7,AU,1684448939
46,rocha,-34.4833,-54.3333,14.02,92,0,2.85,UY,1684449026
47,iqaluit,63.7506,-68.5145,-1.15,68,100,4.12,CA,1684448766
48,victoria,22.2855,114.1577,28.44,89,68,2.24,HK,1684448996
49,lindenwold,39.8243,-74.9977,19.22,58,0,3.6,US,1684449035
50,morant bay,17.8815,-76.4093,30.79,77,21,4.06,JM,1684449036
51,khatanga,71.9667,102.5,1.44,98,100,8.8,RU,1684449036
52,talnakh,69.4865,88.3972,2.34,100,100,4.66,RU,1684448793
53,tessalit,20.1986,1.0114,32.74,22,85,2.63,ML,1684449037
54,uyovu,-3.2833,31.5258,19.34,88,94,2.05,TZ,1684449038
55,tambilil,5.9622,124.6697,26.15,89,100,0.6,PH,1684449038
56,hilo,19.7297,-155.09,26.45,72,75,3.13,US,1684449039
57,goderich,43.7501,-81.7165,14.18,41,95,0.51,CA,1684448817
58,leningradskiy,69.3833,178.4167,2.63,98,87,2.6,RU,1684449040
59,pevek,69.7008,170.3133,1.92,81,96,6.01,RU,1684449041
60,bluff,-46.6,168.3333,10.02,83,99,2.8,NZ,1684449041
61,ondangwa,-17.9167,15.95,16.0,33,98,1.03,NA,1684449042
62,fatehpur,25.9333,80.8,30.26,36,0,2.24,IN,1684449043
63,kismayo,-0.3582,42.5454,26.55,82,53,5.78,SO,1684449043
64,provideniya,64.3833,-173.3,-0.91,80,40,2.0,RU,1684449044
65,port-cartier,50.0334,-66.8654,12.12,38,97,5.61,CA,1684449045
66,sehithwa,-20.4667,22.7167,18.46,36,99,1.54,BW,1684449045
67,hermanus,-34.4187,19.2345,13.12,73,25,2.71,ZA,1684449046
68,saint pete beach,27.7253,-82.7412,30.67,63,0,5.14,US,1684448820
69,mareeba,-17.0,145.4333,18.05,66,44,1.25,AU,1684449048
70,longyearbyen,78.2186,15.6401,-7.09,73,0,4.12,SJ,1684448987
71,albany,42.6001,-73.9662,18.43,29,0,1.34,US,1684448768
72,porbandar,21.6422,69.6093,27.54,83,8,3.81,IN,1684449049
73,chokurdakh,70.6333,147.9167,-0.04,100,100,3.86,RU,1684449050
74,tasiilaq,65.6145,-37.6368,1.09,99,100,2.71,GL,1684449050
75,east london,-33.0153,27.9116,14.24,76,19,5.66,ZA,1684448913
76,broken hill,-31.95,141.4333,8.09,64,0,3.31,AU,1684449052
77,port elizabeth,-33.918,25.5701,13.94,97,100,3.6,ZA,1684448772
78,krasnoselkup,65.7,82.4667,4.06,89,100,5.43,RU,1684449053
79,upernavik,72.7868,-56.1549,-0.61,78,89,2.73,GL,1684449054
80,antofagasta,-23.65,-70.4,17.6,88,43,3.35,CL,1684449055
81,saskylakh,71.9167,114.0833,-0.64,90,80,6.49,RU,1684449055
82,sarakhs,36.5449,61.1577,19.3,33,0,1.33,IR,1684449056
83,hofn,64.2539,-15.2082,8.28,94,97,4.46,IS,1684449056
84,kibaya,-5.3,36.5667,15.16,92,60,2.01,TZ,1684449057
85,esperance,-33.8667,121.9,13.0,84,2,0.87,AU,1684449057
86,kyren,51.6828,102.1408,1.03,75,61,1.08,RU,1684449058
87,concordia,-31.393,-58.0209,21.55,78,0,1.34,AR,1684449059
88,saint-philippe,-21.3585,55.7679,23.77,82,21,2.6,RE,1684449000
89,chicama,-7.8447,-79.1469,23.3,76,19,4.14,PE,1684449060
90,bustamante,26.5333,-100.5,28.86,51,64,8.49,MX,1684449061
91,srednekolymsk,67.45,153.6833,12.72,37,20,8.44,RU,1684449061
92,vestmannaeyjar,63.4427,-20.2734,7.95,93,100,15.66,IS,1684449062
93,nanortalik,60.1432,-45.2371,2.57,85,100,3.17,GL,1684449063
94,college,64.8569,-147.8028,16.44,37,40,3.09,US,1684448778
95,belle fourche,44.6714,-103.8522,17.96,41,83,7.42,US,1684449064
96,roma,43.2128,-75.4557,18.68,23,0,1.54,US,1684449064
97,gorontalo,0.5412,123.0595,25.12,91,51,1.01,ID,1684449065
98,inhambane,-23.865,35.3833,22.51,92,60,4.35,MZ,1684449066
99,mahebourg,-20.4081,57.7,24.03,94,20,0.0,MU,1684449066
100,ust-tsilma,65.441,52.1498,13.74,85,47,2.85,RU,1684449026
101,alugan,12.2188,125.4808,25.73,89,100,2.0,PH,1684449067
102,iwanai,42.9744,140.5089,17.33,53,100,1.53,JP,1684449068
103,vardo,70.3705,31.1107,1.99,80,84,4.12,NO,1684449069
104,georgetown,5.4112,100.3354,26.97,78,40,2.57,MY,1684448783
105,port lincoln,-34.7333,135.8667,14.11,77,99,3.04,AU,1684449070
106,jumla,29.2747,82.1838,9.69,83,8,1.64,NP,1684449072
107,ayapel,8.3137,-75.1398,31.87,70,32,1.7,CO,1684448807
108,tiksi,71.6872,128.8694,-8.12,89,54,2.98,RU,1684448775
109,aklavik,68.2191,-135.0107,3.0,65,40,4.63,CA,1684449073
110,clyde river,70.4692,-68.5914,-3.87,100,100,4.63,CA,1684449074
111,steamboat springs,40.485,-106.8317,19.41,47,100,8.23,US,1684449074
112,opuwo,-18.0607,13.84,13.21,55,0,1.3,NA,1684449076
113,christchurch,-43.5333,172.6333,10.51,91,100,1.54,NZ,1684448864
114,torrington,41.8007,-73.1212,17.05,37,0,1.79,US,1684449013
115,kruisfontein,-34.0033,24.7314,12.71,86,61,4.26,ZA,1684448946
116,dikson,73.5069,80.5464,0.1,98,100,2.08,RU,1684449078
117,auki,-8.7676,160.7034,27.7,83,86,1.35,SB,1684449079
118,areosa,41.7178,-8.8571,12.78,70,39,7.1,PT,1684449079
119,vieques,18.425,-65.8329,30.18,74,40,5.66,PR,1684449080
120,moanda,-1.5575,13.2178,23.52,94,78,0.91,GA,1684449081
121,oistins,13.0667,-59.5333,28.05,74,20,4.63,BB,1684449081
122,sitka,57.0531,-135.33,18.94,52,0,0.0,US,1684449034
123,butaritari,3.0707,172.7902,28.49,78,67,4.9,KI,1684449082
124,arraial do cabo,-22.9661,-42.0278,21.92,56,20,3.09,BR,1684448870
125,copiapo,-27.3667,-70.3333,13.83,47,100,1.98,CL,1684448967
126,ancud,-41.8697,-73.8203,11.19,82,81,7.97,CL,1684448793
127,sola,-13.8833,167.55,27.18,76,15,2.06,VU,1684449086
128,sobolevo,54.4299,31.8996,9.63,93,100,3.34,RU,1684449086
129,shahrud,36.4182,54.9763,17.95,38,0,0.95,IR,1684449087
130,lasa,46.6166,10.7002,10.76,98,100,1.51,IT,1684449087
131,ponta do sol,32.6667,-17.1,18.4,49,28,3.52,PT,1684449088
132,los llanos de aridane,28.6585,-17.9182,17.86,87,20,6.69,ES,1684449089
133,barrow,71.2906,-156.7887,-0.99,86,100,5.14,US,1684449089
134,kaeo,-35.1,173.7833,19.32,95,26,6.89,NZ,1684449090
135,chuy,-33.6971,-53.4616,18.94,68,0,2.05,UY,1684448797
136,kurchum,48.5722,83.6542,9.35,46,98,4.2,KZ,1684449091
137,port-gentil,-0.7193,8.7815,27.11,87,100,6.21,GA,1684448872
138,sivaki,52.6333,126.75,13.12,31,5,2.72,RU,1684449092
139,isangel,-19.55,169.2667,26.39,80,75,5.72,VU,1684449092
140,saint-pierre,-21.3393,55.4781,23.82,83,0,2.57,RE,1684449093
141,kudahuvadhoo,2.6708,72.8944,27.87,75,38,1.6,MV,1684449093
142,sao jose da coroa grande,-8.8978,-35.1478,25.51,77,98,3.12,BR,1684449094
143,fortuna,40.5982,-124.1573,17.74,86,75,6.17,US,1684449094
144,morro bay,35.3658,-120.8499,35.49,35,16,4.47,US,1684448987
145,lebu,-37.6167,-73.65,11.88,91,69,1.5,CL,1684448868
146,roche-la-moliere,45.4341,4.3228,9.06,87,0,0.0,FR,1684449096
147,ambovombe,-25.1667,46.0833,18.61,85,21,0.57,MG,1684449097
148,batemans bay,-35.7167,150.1833,10.61,54,51,1.85,AU,1684449097
149,pangnirtung,66.1451,-65.7125,-2.0,80,75,5.14,CA,1684449098
150,viesite,56.3475,25.5551,4.31,67,100,2.03,LV,1684449098
151,mount gambier,-37.8333,140.7667,11.35,85,86,1.07,AU,1684449099
152,seryshevo,51.0933,128.3786,14.44,38,49,1.25,RU,1684449100
153,tignere,7.3667,12.65,20.45,86,90,1.04,CM,1684449100
154,laguna de perlas,12.3429,-83.6712,31.05,75,6,3.92,NI,1684449101
155,saint-louis,16.3333,-15.0,33.8,24,51,7.35,SN,1684449102
156,port maria,18.3685,-76.8895,30.98,83,64,3.81,JM,1684449102
157,cherskiy,68.75,161.3,10.76,57,69,10.82,RU,1684449103
158,cobija,-11.0267,-68.7692,32.1,66,20,1.54,BO,1684449104
159,kodiak,57.79,-152.4072,8.73,61,100,7.2,US,1684449105
160,sechura,-5.5569,-80.8222,26.34,65,19,8.36,PE,1684449106
161,bredasdorp,-34.5322,20.0403,13.35,68,71,0.85,ZA,1684448994
162,naze,28.3667,129.4833,22.51,90,65,4.54,JP,1684448813
163,kahului,20.8947,-156.47,30.01,51,40,7.2,US,1684448898
164,berani,25.785,68.8069,29.66,62,20,4.1,PK,1684449107
165,dawlatabad,36.4141,64.9053,20.93,35,2,0.42,AF,1684449108
166,preeceville,51.95,-102.6677,11.69,47,97,4.57,CA,1684449109
167,buchanan,5.8808,-10.0467,26.28,86,62,1.83,LR,1684449109
168,bandarbeyla,9.4942,50.8122,27.54,87,35,5.37,SO,1684449109
169,saldanha,-33.0117,17.9442,10.03,80,23,5.25,ZA,1684449110
170,nouadhibou,20.931,-17.0347,20.99,64,93,9.77,MR,1684449096
171,yeppoon,-23.1333,150.7333,12.88,45,0,1.78,AU,1684449111
172,lakatoro,-16.0999,167.4164,27.93,70,26,3.08,VU,1684449112
173,buraydah,26.326,43.975,30.25,32,90,10.44,SA,1684449113
174,shimoda,34.6667,138.95,20.61,84,100,3.98,JP,1684449115
175,matriz de camaragibe,-9.1517,-35.5333,24.69,85,89,1.07,BR,1684449115
176,san andres,12.5847,-81.7006,30.01,79,75,3.09,CO,1684449116
177,cabo san lucas,22.8909,-109.9124,28.67,50,20,8.23,MX,1684449117
178,luganville,-15.5333,167.1667,27.64,76,40,3.19,VU,1684448992
179,divnogorsk,55.9594,92.3619,2.27,76,72,1.38,RU,1684449118
180,moron,-34.6534,-58.6198,18.86,64,0,0.38,AR,1684449118
181,bethel,41.3712,-73.414,16.14,45,0,5.66,US,1684449119
182,pasni,25.2631,63.471,27.07,88,0,2.33,PK,1684449119
183,kidal,18.4411,1.4078,34.01,14,41,1.67,ML,1684449120
184,cornedo vicentino,45.6131,11.3406,17.1,70,100,1.67,IT,1684449120
185,yenotayevka,47.2456,47.0281,16.32,67,44,4.05,RU,1684449121
186,gamboula,4.1178,15.1393,22.87,73,32,1.62,CF,1684449122
187,chubbuck,42.9208,-112.4661,24.14,32,20,3.13,US,1684449122
188,saint george,37.1041,-113.5841,31.33,22,100,9.26,US,1684448927
189,geraldton,-28.7667,114.6,18.23,34,75,6.69,AU,1684449123
190,santa cruz,-17.8,-63.1667,26.03,78,40,3.09,BO,1684449124
191,livingston,55.9029,-3.5226,12.37,84,100,4.12,GB,1684448847
192,sao filipe,14.8961,-24.4956,23.91,76,86,3.31,CV,1684449125
193,yerbogachen,61.2767,108.0108,3.78,66,7,2.65,RU,1684449126
194,tommot,58.9564,126.2925,7.55,68,98,1.17,RU,1684449126
195,sinnamary,5.3833,-52.95,26.01,89,89,3.93,GF,1684449127
196,mar del plata,-38.0023,-57.5575,15.05,90,20,2.06,AR,1684449127
197,laguna,38.421,-121.4238,34.08,38,0,3.09,US,1684449128
198,ostrovnoy,68.0531,39.5131,1.71,93,100,7.84,RU,1684449128
199,cidreira,-30.1811,-50.2056,18.76,84,26,5.47,BR,1684448926
200,te anau,-45.4167,167.7167,6.03,90,100,0.34,NZ,1684449134
201,shakawe,-18.3667,21.85,19.42,39,80,0.38,BW,1684449135
202,constitucion,-35.3333,-72.4167,12.89,79,100,5.23,CL,1684449136
203,comitancillo,15.0833,-91.7167,23.93,71,90,0.91,GT,1684449137
204,kaitangata,-46.2817,169.8464,10.41,91,100,0.84,NZ,1684449137
205,samur,41.8253,48.486,15.74,61,81,2.47,RU,1684449138
206,terrace bay,48.7834,-87.1,4.68,95,100,2.5,CA,1684449138
207,san policarpo,12.1791,125.5072,25.85,89,100,1.99,PH,1684449139
208,poum,-20.2333,164.0167,23.71,58,83,7.76,NC,1684449139
209,caravelas,-17.7125,-39.2481,23.64,61,70,4.08,BR,1684449140
210,road town,18.4167,-64.6167,29.05,70,40,3.09,VG,1684449021
211,arak,34.0917,49.6892,15.38,36,5,1.4,IR,1684449141
212,loralai,30.3705,68.598,21.89,28,0,3.57,PK,1684449142
213,tuktoyaktuk,69.4541,-133.0374,0.0,80,100,5.66,CA,1684449142
214,qostanay,53.1667,63.5833,8.16,87,100,6.0,KZ,1684449142
215,siva,29.2041,25.5195,22.45,27,0,4.97,EG,1684449143
216,porto novo,6.4965,2.6036,25.9,87,91,2.61,BJ,1684449143
217,rehau,50.25,12.0333,8.38,66,100,2.06,DE,1684449144
218,grindavik,63.8424,-22.4338,8.26,93,100,12.35,IS,1684448961
219,faya,18.3851,42.4509,17.29,64,28,0.37,SA,1684449145
220,seoul,37.5683,126.9778,18.78,80,0,2.57,KR,1684449007
221,paamiut,61.994,-49.6678,1.08,87,100,8.03,GL,1684449146
222,sri aman,1.2376,111.4621,25.03,94,96,2.06,MY,1684449146
223,payo,-3.7508,103.6372,22.75,98,95,0.76,ID,1684449147
224,dhidhdhoo,6.8833,73.1,28.32,76,5,1.33,MV,1684449148
225,doha,25.2867,51.5333,31.17,42,0,5.14,QA,1684448952
226,dwarka,22.2394,68.9678,27.45,82,9,4.06,IN,1684449149
227,comodoro rivadavia,-45.8667,-67.5,15.92,27,20,11.32,AR,1684449149
228,san patricio,28.017,-97.5169,31.4,56,56,5.6,US,1684449050
229,bambanglipuro,-7.95,110.2833,23.16,88,46,1.45,ID,1684449150
230,porto velho,-8.7619,-63.9039,26.03,83,20,1.54,BR,1684449151
231,imeni poliny osipenko,52.4201,136.4853,8.65,69,97,4.1,RU,1684449152
232,namibe,-15.1961,12.1522,20.28,65,69,3.67,AO,1684449152
233,aswan,24.0934,32.907,28.61,20,0,5.14,EG,1684449153
234,van,38.4924,43.3831,17.64,32,75,5.66,TR,1684449154
235,yar-sale,66.8333,70.8333,5.45,82,96,6.55,RU,1684449154
236,le port,-20.9373,55.2919,24.0,96,1,2.67,RE,1684449024
237,pangody,65.85,74.4859,6.41,77,100,6.9,RU,1684449156
238,drezdenko,52.8383,15.8308,7.44,85,65,2.54,PL,1684449156
239,quthing,-30.4,27.7003,8.69,76,100,2.32,LS,1684449157
240,shingu,33.7333,135.9833,19.0,89,100,3.51,JP,1684448988
241,myshkin,57.7897,38.4545,8.94,93,100,4.26,RU,1684449158
242,ribeira grande,38.5167,-28.7,18.21,85,19,4.47,PT,1684448975
243,agnibilekrou,7.1344,-3.2047,21.75,99,100,0.83,CI,1684449159
244,qaanaaq,77.484,-69.3632,-1.75,91,98,1.59,GL,1684449159
245,syracuse,37.0881,15.2792,16.65,80,27,1.4,IT,1684448977
246,tiarei,-17.5333,-149.3333,30.0,82,84,7.42,PF,1684449161
247,serebryansk,49.6925,83.2892,6.13,46,100,1.09,KZ,1684449161
248,savinskiy,62.9342,40.1361,4.94,85,28,2.09,RU,1684449162
249,semporna,4.4818,118.6112,26.7,83,97,2.15,MY,1684449162
250,torbay,47.6666,-52.7314,5.32,88,75,6.69,CA,1684449163
251,bangassou,4.7413,22.8184,22.53,84,100,0.42,CF,1684449164
252,sur,22.5667,59.5289,32.52,50,22,5.01,OM,1684448954
253,anadyr,64.75,177.4833,8.28,57,0,3.0,RU,1684448991
254,tuatapere,-46.1333,167.6833,7.7,89,100,1.55,NZ,1684449167
255,garelochhead,56.082,-4.8291,11.23,92,67,1.62,GB,1684449167
256,beyneu,45.3167,55.2,16.58,70,80,2.11,KZ,1684449168
257,nueva loja,0.0847,-76.8828,30.01,70,0,1.54,EC,1684449168
258,lar,26.2039,83.9717,28.33,52,0,3.44,IN,1684449169
259,klaksvik,62.2266,-6.589,9.51,82,70,11.25,FO,1684449169
260,mitsamiouli,-11.3847,43.2844,26.16,75,4,2.94,KM,1684449170
261,xuddur,4.1213,43.8894,23.93,80,17,5.22,SO,1684449170
262,la libertad,-2.2333,-80.9,28.81,74,0,5.66,EC,1684449171
263,trairi,-3.2778,-39.2689,25.68,87,69,3.02,BR,1684449159
264,rawson,-43.3002,-65.1023,13.82,24,0,3.37,AR,1684449172
265,itacoatiara,-3.1431,-58.4442,25.1,95,75,0.74,BR,1684449173
266,flinders,-34.5833,150.8552,11.88,78,37,0.89,AU,1684449173
267,general pico,-35.6566,-63.7568,13.6,44,1,3.11,AR,1684449174
268,fairbanks,64.8378,-147.7164,16.38,34,40,3.09,US,1684449174
269,padang,-0.9492,100.3543,25.03,86,100,1.39,ID,1684449175
270,camacha,33.0833,-16.3333,16.68,68,40,7.72,PT,1684449175
271,nabire,-3.3667,135.4833,23.81,91,100,2.32,ID,1684449176
272,muscat,23.6139,58.5922,34.01,47,93,2.15,OM,1684449176
273,dzerzhinskoye,56.8344,95.2283,2.25,87,29,2.32,RU,1684449177
274,nantucket,41.2835,-70.0995,12.03,52,0,6.69,US,1684449106
275,temiscaming,46.7212,-79.0971,15.73,21,85,4.12,CA,1684449178
276,bereda,43.2686,-7.5406,11.9,92,99,3.63,ES,1684449178
277,kavieng,-2.5744,150.7967,26.25,89,100,7.3,PG,1684449179
278,tautira,-17.7333,-149.15,26.65,84,88,7.16,PF,1684449179
279,chepareria,1.3077,35.2039,15.83,83,10,2.06,KE,1684449180
280,santa maria,-29.6842,-53.8069,16.61,94,0,1.03,BR,1684449180
281,petropavlovsk-kamchatskiy,53.0452,158.6483,3.33,100,100,3.0,RU,1684449147
282,verkhoturye,58.8627,60.8054,7.29,64,87,1.93,RU,1684449181
283,la ronge,55.1001,-105.2842,17.12,23,0,3.09,CA,1684449004
284,hualmay,-11.0964,-77.6139,22.14,78,33,5.72,PE,1684449183
285,itoman,26.1247,127.6694,24.21,83,75,7.72,JP,1684449185
286,nueve de julio,-35.4444,-60.8831,13.31,72,2,0.33,AR,1684449185
287,arman,59.7,150.1667,6.12,99,100,2.65,RU,1684449186
288,kommunisticheskiy,61.6789,64.4819,8.13,57,8,3.01,RU,1684449135
289,necochea,-38.5473,-58.7368,12.97,83,0,0.7,AR,1684449187
290,awjilah,29.1081,21.2869,24.33,19,0,3.28,LY,1684449187
291,okha,53.5739,142.9478,3.04,88,100,3.88,RU,1684448995
292,praia da vitoria,38.7333,-27.0667,18.14,77,75,5.15,PT,1684448993
293,whitehorse,60.7161,-135.0538,25.05,18,20,3.6,CA,1684449189
294,juba,4.8517,31.5825,22.78,87,34,0.6,SS,1684449190
295,muyezerskiy,63.9333,31.65,4.67,86,100,4.48,RU,1684449190
296,omboue,-1.5746,9.2618,25.68,92,100,3.69,GA,1684449191
297,souillac,-20.5167,57.5167,23.21,94,20,0.0,MU,1684449191
298,noumea,-22.2763,166.4572,25.0,99,100,4.79,NC,1684449008
299,sandusky,41.3501,-83.1332,18.64,52,6,3.73,US,1684449192
300,chenghai,23.4632,116.768,24.95,100,75,2.0,CN,1684449193
301,eureka,40.8021,-124.1637,17.89,82,8,2.68,US,1684449193
302,dourbali,11.8091,15.8632,34.89,28,99,1.4,TD,1684449194
303,evensk,61.95,159.2333,3.57,85,100,1.5,RU,1684449194
304,kilifi,-3.6305,39.8499,24.46,84,1,4.96,KE,1684449195
305,bang saphan,11.2126,99.5117,27.47,75,98,4.01,TH,1684449195
306,la cruz,23.9167,-106.9,27.2,57,66,4.05,MX,1684449196
307,thompson,55.7435,-97.8558,17.09,39,20,4.63,CA,1684449197
308,buluang,13.3068,123.3425,27.23,85,100,1.3,PH,1684449197
309,hasaki,35.7333,140.8333,24.01,78,100,8.21,JP,1684449198
310,mana,5.6592,-53.7767,25.82,89,99,3.62,GF,1684449198
311,neiafu,-18.65,-173.9833,27.38,89,75,5.14,TO,1684448983
312,gunjur,13.2019,-16.7339,25.04,83,0,4.12,GM,1684449199
313,aksu,41.1231,80.2644,23.39,29,100,2.6,CN,1684449200
314,saint anthony,45.0205,-93.218,22.12,70,0,3.09,US,1684449200
315,skegness,53.1436,0.3363,13.04,85,100,4.47,GB,1684449201
316,nizwa,22.9333,57.5333,28.47,42,54,0.72,OM,1684449176
317,tura,25.5198,90.2201,20.86,94,67,1.66,IN,1684449202
318,vao,-22.6667,167.4833,22.13,68,99,8.2,NC,1684449203
319,panaba,21.2833,-88.2667,30.96,55,28,7.39,MX,1684449203
320,nome,64.5011,-165.4064,4.04,81,0,3.6,US,1684449204
321,jacareacanga,-6.2222,-57.7528,24.22,97,100,0.91,BR,1684449204
322,zverinogolovskoye,54.4586,64.8542,9.3,48,100,6.11,RU,1684449205
323,ixtapa,20.7,-105.2,29.57,66,75,6.69,MX,1684449205
324,dolgoderevenskoye,55.3444,61.3444,6.29,52,0,1.0,RU,1684449206
325,havoysund,70.9963,24.6622,5.13,91,100,8.59,NO,1684449207
326,norman wells,65.282,-126.8329,22.02,24,40,4.12,CA,1684449207
327,kutum,14.2,24.6667,26.88,13,26,3.22,SD,1684449208
328,pimentel,-6.8367,-79.9342,26.16,65,75,9.77,PE,1684449208
329,grand bank,47.0999,-55.765,5.0,72,4,11.03,CA,1684449209
330,velyka oleksandrivka,47.3197,33.3037,16.3,70,49,5.08,UA,1684449209
331,borivka,50.4564,29.546,15.58,65,98,2.44,UA,1684449210
332,hambantota,6.1241,81.1185,26.28,88,40,3.97,LK,1684449211
333,kwale,5.7063,6.4374,24.62,96,77,1.62,NG,1684449211
334,touros,-5.1989,-35.4608,26.52,80,63,5.3,BR,1684449086
335,samarai,-10.6167,150.6667,26.77,72,100,6.73,PG,1684449212
336,luau,-10.7073,22.2247,19.94,56,100,1.85,AO,1684449213
337,beringovskiy,63.05,179.3167,2.25,65,31,0.36,RU,1684449214
338,gamba,-2.65,10.0,25.08,90,100,2.38,GA,1684449214
339,aneho,6.2333,1.6,26.11,83,99,3.06,TG,1684449215
340,kuybyshevskiy zaton,55.1593,49.1701,11.47,67,23,2.69,RU,1684449215
341,oktyabrskoye,43.0645,44.7417,11.08,81,75,3.0,RU,1684449216
342,manaure,11.7751,-72.4445,29.77,69,30,7.81,CO,1684449216
343,severo-kurilsk,50.6789,156.125,2.95,97,100,9.85,RU,1684449217
344,lunglei,22.8833,92.7333,17.4,98,26,0.96,IN,1684449217
345,erdenet,49.0333,104.0833,-1.06,55,10,5.37,MN,1684449218
346,tual,-5.6667,132.75,27.21,71,100,7.25,ID,1684449218
347,manmad,20.25,74.45,27.87,40,0,4.31,IN,1684449219
348,campoverde,-8.4753,-74.8058,30.83,71,72,0.49,PE,1684449219
349,chenzhou,25.8,113.0333,21.68,85,44,0.98,CN,1684448977
350,lorengau,-2.0226,147.2712,27.2,85,100,5.5,PG,1684449220
351,sorland,67.667,12.6934,7.92,90,100,14.79,NO,1684449221
352,ilulissat,69.2167,-51.1,3.01,75,20,3.6,GL,1684449221
353,killarney,52.05,-9.5167,7.59,96,34,1.02,IE,1684449222
354,berlevag,70.8578,29.0864,4.0,65,100,10.8,NO,1684449223
355,ariquemes,-9.9133,-63.0408,24.75,91,92,0.83,BR,1684449223
356,rehoboth,-23.3167,17.0833,12.71,45,0,1.04,NA,1684449224
357,igarka,67.4667,86.5833,1.74,98,100,5.79,RU,1684449053
358,belyye berega,53.2085,34.6641,14.1,93,82,2.32,RU,1684449225
359,shache,38.4167,77.2406,23.84,22,100,9.88,CN,1684449225
360,pacific grove,36.6177,-121.9166,23.64,76,40,4.63,US,1684449030
361,zaoyang,32.1272,112.7542,22.44,78,5,2.21,CN,1684449227
362,walvis bay,-22.9575,14.5053,13.38,93,0,3.6,NA,1684449227
363,kasangulu,-4.5911,15.1708,23.34,95,100,0.61,CD,1684449228
364,banikoara,11.2985,2.4386,27.55,56,100,1.79,BJ,1684449229
365,bambous virieux,-20.3428,57.7575,24.01,94,20,0.0,MU,1684449229
366,tombouctou,20.0,-3.0,32.01,17,66,5.74,ML,1684449229
367,gao,16.6362,1.637,33.28,18,100,4.91,ML,1684449230
368,holt,42.6406,-84.5153,21.06,31,0,3.09,US,1684449101
369,carutapera,-1.195,-46.02,25.22,94,92,2.15,BR,1684449231
370,yulara,-25.2406,130.9889,10.37,61,0,3.61,AU,1684449232
371,rapid valley,44.0625,-103.1463,18.76,46,20,10.29,US,1684449232
372,orsha,54.5153,30.4053,8.0,67,93,3.17,BY,1684449233
373,san carlos de bariloche,-41.1456,-71.3082,8.86,71,40,8.23,AR,1684449033
374,dossor,47.5272,52.9811,15.14,67,35,3.21,KZ,1684449234
375,mehamn,71.0357,27.8492,3.97,70,20,7.2,NO,1684449234
376,asau,46.4333,26.4,14.6,95,95,2.73,RO,1684449235
377,emerald,-23.5333,148.1667,14.63,52,0,5.07,AU,1684449235
378,giddalur,15.35,78.9167,28.91,71,5,1.0,IN,1684449236
379,fereydun kenar,36.6864,52.5225,18.32,77,3,1.3,IR,1684449237
380,akyab,20.15,92.9,26.61,84,6,1.42,MM,1684449238
381,namatanai,-3.6667,152.4333,26.79,85,100,3.86,PG,1684449238
382,finote selam,10.7,37.2667,21.19,51,96,1.67,ET,1684449239
383,mamlyutka,54.9375,68.5394,7.23,52,100,5.46,KZ,1684449244
384,suzhou,31.3114,120.6181,18.33,81,89,2.17,CN,1684449167
385,daru,-9.0763,143.2092,26.05,86,100,7.07,PG,1684449245
386,guerrero negro,27.9769,-114.0611,20.7,55,3,6.05,MX,1684448976
387,xam nua,20.4197,104.0439,20.42,71,9,1.41,LA,1684449246
388,husavik,66.0449,-17.3389,7.67,89,98,1.66,IS,1684449247
389,cutler,25.6151,-80.3106,30.01,77,40,3.09,US,1684449247
390,makakilo city,21.3469,-158.0858,27.18,67,100,5.66,US,1684449249
391,svetlograd,45.3353,42.8547,13.51,63,24,2.77,RU,1684449249
392,gizo,-8.103,156.8419,28.26,77,98,1.82,SB,1684449250
393,garowe,8.4054,48.4845,26.8,73,21,7.61,SO,1684449250
394,chudovo,59.1167,31.6833,4.13,84,85,2.07,RU,1684449251
395,aviles,43.5547,-5.9248,12.66,83,20,1.03,ES,1684449251
396,joshimath,30.5667,79.5667,13.15,64,66,2.35,IN,1684449252
397,yumen,40.2833,97.2,11.06,28,0,6.94,CN,1684449252
398,sao joao da barra,-21.6403,-41.0511,20.05,67,4,5.0,BR,1684449253
399,manama,26.2154,50.5832,31.63,51,0,3.09,BH,1684449131
400,mayo,38.8876,-76.5119,20.97,54,0,3.6,US,1684449254
401,zhigansk,66.7697,123.3711,-1.34,82,68,2.77,RU,1684449255
402,tumut,-35.3,148.2167,7.52,62,43,0.45,AU,1684449255
403,henties bay,-22.116,14.2845,13.38,92,0,2.78,NA,1684449256
404,guilin,25.2819,110.2864,22.06,84,16,1.14,CN,1684448974
405,san cristobal,7.7669,-72.225,30.1,86,96,1.86,VE,1684449257
406,port hedland,-20.3167,118.5667,17.03,34,2,3.6,AU,1684449257
407,morondava,-20.2833,44.2833,21.51,62,0,2.59,MG,1684449258
408,odweyne,9.4092,45.064,25.06,54,39,3.18,SO,1684449258
409,wahiawa,21.5028,-158.0236,26.18,69,75,0.0,US,1684449259
410,masakin,35.7292,10.5808,18.7,94,20,7.2,TN,1684449259
411,krosno,49.6887,21.7706,8.04,100,100,1.93,PL,1684449260
412,goure,13.9835,10.2704,34.12,25,100,2.49,NE,1684449261
413,luderitz,-26.6481,15.1594,11.2,68,0,7.41,NA,1684449261
414,port pirie,-33.1833,138.0167,11.19,69,4,1.02,AU,1684449262
415,buala,-8.145,159.5921,28.54,77,87,1.59,SB,1684449262
416,shreveport,32.5251,-93.7502,30.96,48,0,3.6,US,1684449263
417,lichtenau,51.6167,8.9,7.79,77,0,2.06,DE,1684449263
418,lerwick,60.1545,-1.1494,9.0,92,100,5.42,GB,1684449264
419,port blair,11.6667,92.75,26.02,89,40,0.0,IN,1684449264
420,hokitika,-42.7167,170.9667,11.23,82,100,2.74,NZ,1684449265
421,thai nguyen,21.5928,105.8442,27.88,83,1,1.01,VN,1684449266
422,kieta,-6.2167,155.6333,25.9,92,100,1.84,PG,1684449266
423,severodvinsk,64.5635,39.8302,7.21,81,77,4.55,RU,1684449267
424,zabaykalsk,49.6333,117.3167,14.26,30,99,11.81,RU,1684449268
425,tanout,14.9709,8.8879,33.21,28,100,3.44,NE,1684449268
426,pemberton,50.3164,-122.8027,29.54,36,24,3.21,CA,1684449269
427,palora,-1.7,-77.9333,24.06,92,61,0.28,EC,1684449269
428,olafsvik,64.8945,-23.7142,7.43,97,99,6.79,IS,1684449270
429,nokaneng,-19.6667,22.2667,17.91,36,100,2.63,BW,1684449271
430,korla,41.7597,86.1469,22.74,25,86,3.68,CN,1684449271
431,batticaloa,7.7102,81.6924,25.85,84,22,2.28,LK,1684449004
432,maniitsoq,65.4167,-52.9,1.23,72,70,2.94,GL,1684449272
433,wufeng,27.45,104.8333,13.68,98,100,0.69,CN,1684449273
434,vicksburg,32.3526,-90.8779,29.85,1,20,2.06,US,1684449273
435,pandan niog,6.2282,120.5631,28.68,69,97,2.34,PH,1684449274
436,komsomolskiy,40.4272,71.7189,18.4,68,50,1.03,UZ,1684449274
437,lebyazhye,55.2689,66.4947,7.79,50,100,5.74,RU,1684449275
438,kabanjahe,3.1001,98.4908,17.78,95,100,1.04,ID,1684449124
439,alice springs,-23.7,133.8833,2.75,93,0,4.19,AU,1684449276
440,shizuishan,39.2333,106.7694,20.44,17,1,2.86,CN,1684449277
441,mogadishu,2.0371,45.3438,26.84,85,66,6.48,SO,1684449277
442,dunedin,-45.8742,170.5036,11.56,10,100,0.32,NZ,1684449125
443,olkhovka,53.2115,60.6069,6.61,83,100,5.31,RU,1684449278
444,grand gaube,-20.0064,57.6608,24.1,79,2,0.89,MU,1684449279
445,pisco,-13.7,-76.2167,22.03,73,0,8.75,PE,1684448987
446,zalantun,48.0,122.7167,15.38,22,90,2.52,CN,1684449280
447,nyurba,63.2842,118.3319,3.72,57,50,1.73,RU,1684449051
448,urumqi,43.801,87.6005,15.53,27,0,3.0,CN,1684449281
449,matsuura,33.3271,129.721,18.27,92,100,1.58,JP,1684449281
450,katsuura,35.1333,140.3,21.51,80,100,5.88,JP,1684449282
451,nerchinskiy zavod,51.3088,119.61,13.29,36,100,7.0,RU,1684449282
452,san quintin,30.4833,-115.95,18.29,69,39,3.98,MX,1684449283
453,lavumisa,-27.31,31.892,16.66,97,14,1.51,SZ,1684449283
454,tromso,69.6496,18.957,6.01,75,75,9.26,NO,1684449111
455,angoche,-16.2325,39.9086,23.29,82,0,2.32,MZ,1684449284
456,hagerstown,39.6418,-77.72,21.31,48,20,4.63,US,1684449043
457,mountain home,43.133,-115.6912,26.75,33,40,2.57,US,1684449286
458,wenling,28.3669,121.36,20.02,88,94,2.38,CN,1684449286
459,ipatovo,45.7181,42.9036,15.08,58,63,3.44,RU,1684449287
460,hearst,49.6835,-83.6665,14.14,54,100,5.66,CA,1684449287
461,ahipara,-35.1667,173.1667,19.34,78,7,8.16,NZ,1684449288
462,poso,-1.3959,120.7524,25.66,84,72,1.65,ID,1684449288
463,marang,5.2056,103.2059,24.95,89,94,1.92,MY,1684449289
464,cayenne,4.9333,-52.3333,26.02,89,100,1.03,GF,1684449019
465,tevaitoa,-16.7833,-151.5,27.95,77,82,5.42,PF,1684449290
466,cabra,37.4725,-4.4421,12.38,79,97,1.66,ES,1684449290
467,kelvington,52.1667,-103.5343,13.18,36,60,5.78,CA,1684449291
468,kohima,25.6667,94.1167,14.35,87,30,1.32,IN,1684449291
469,vila franca do campo,37.7167,-25.4333,17.23,85,80,3.93,PT,1684449292
470,quatre cocos,-20.2078,57.7625,23.94,82,7,1.97,MU,1684449135
471,tezu,27.9167,96.1667,20.77,86,69,1.08,IN,1684449293
472,coihaique,-45.5752,-72.0662,4.97,93,100,1.54,CL,1684449293
473,parnamirim,-5.9156,-35.2628,24.19,100,75,5.14,BR,1684449294
474,urucara,-2.5364,-57.76,24.65,96,93,0.58,BR,1684449294
475,vila velha,-20.3297,-40.2925,21.97,76,0,6.17,BR,1684449106
476,oriximina,-1.7656,-55.8661,25.29,93,92,1.25,BR,1684449295
477,barroquinha,-3.0189,-41.1361,24.94,94,57,2.4,BR,1684449296
478,berdigestyakh,62.0989,126.6992,3.24,76,100,1.77,RU,1684449296
479,riyadh,24.6877,46.7219,25.08,30,100,7.5,SA,1684449273
480,piacabucu,-10.4056,-36.4344,24.63,86,97,2.31,BR,1684449297
481,kerouane,9.2667,-9.0167,22.41,96,100,1.53,GN,1684449298
482,matagami,49.7502,-77.6328,12.06,24,20,2.57,CA,1684449150
483,banda aceh,5.5577,95.3222,26.94,83,81,2.25,ID,1684449299
484,faanui,-16.4833,-151.75,27.85,78,69,5.64,PF,1684449300
485,sept-iles,50.2001,-66.3821,12.29,40,75,8.23,CA,1684449089
486,eenhana,-17.4667,16.3333,15.57,29,96,1.81,NA,1684449301
487,gravdal,68.1214,13.5031,6.94,100,100,7.72,NO,1684449302
488,graaff-reinet,-32.2522,24.5308,7.73,96,75,0.39,ZA,1684449303
489,osakarovka,50.565,72.5692,8.25,48,100,7.04,KZ,1684449303
490,skofja loka,46.1655,14.3063,12.22,85,75,1.54,SI,1684449304
491,kimbe,-5.5502,150.1429,28.17,73,90,0.25,PG,1684449305
492,chernyshevskiy,63.0128,112.4714,1.72,69,23,2.05,RU,1684449305
493,vega de alatorre,20.0333,-96.6333,28.46,77,22,4.85,MX,1684449306
494,hervey bay,-25.2986,152.8535,17.06,49,0,3.73,AU,1684449307
495,pijijiapan,15.7011,-93.23,32.83,57,77,3.14,MX,1684449308
496,horasan,40.0458,42.1728,11.0,66,68,1.08,TR,1684449308
497,busia,0.4544,34.0758,17.68,92,16,2.27,UG,1684449309
498,vuktyl,63.8567,57.3094,13.76,59,44,5.61,RU,1684449309
499,nichinan,31.6,131.3667,18.82,94,100,2.15,JP,1684449310
500,anchorage,61.2181,-149.9003,16.16,48,0,5.66,US,1684449070
501,yumaguzino,52.9041,56.3933,7.79,80,99,4.74,RU,1684449311
502,yazman,29.1212,71.7446,31.3,35,0,2.3,PK,1684449312
503,mount darwin,-16.7725,31.5838,16.62,61,59,1.39,ZW,1684449312
504,batamshinskiy,50.5594,58.2747,9.04,97,80,5.67,KZ,1684449065
505,batagay,67.6333,134.6333,0.34,76,100,2.66,RU,1684449313
506,pavlodar,52.3,76.95,4.89,52,0,6.0,KZ,1684449314
507,londoko,49.0333,131.9833,15.45,38,1,0.72,RU,1684449315
508,vanavara,60.34,102.2797,2.28,69,6,2.05,RU,1684449315
509,de haan,51.272,3.0429,11.66,79,0,4.63,BE,1684449316
510,mallaig,54.2169,-111.3685,15.88,44,9,2.81,CA,1684449316
511,muros,42.7762,-9.0603,15.61,61,22,7.72,ES,1684449317
512,lompoc,34.6391,-120.4579,27.05,82,100,4.12,US,1684449318
513,siparia,10.1333,-61.5,28.23,78,84,6.12,TT,1684449318
514,mutoko,-17.397,32.2268,15.4,54,49,1.47,ZW,1684449320
515,gat,31.61,34.7642,18.38,81,54,2.77,IL,1684449185
516,paracuru,-3.41,-39.0306,28.39,90,76,2.99,BR,1684449321
517,saint-medard-en-jalles,44.8969,-0.7214,13.12,58,0,3.09,FR,1684449321
518,cooma,-36.2333,149.1333,4.58,64,33,1.07,AU,1684449322
519,ouallam,14.3188,2.0866,32.27,41,100,5.01,NE,1684449323
520,atar,20.5169,-13.0499,26.96,17,65,4.8,MR,1684449324
521,matay,28.419,30.7792,20.73,44,40,5.27,EG,1684449324
522,hirara,24.8,125.2833,24.92,100,75,3.6,JP,1684449325
523,nicoya,10.1483,-85.452,33.77,47,68,1.1,CR,1684449325
524,ocos,14.5094,-92.1933,33.1,67,43,4.54,GT,1684449326
525,benalla,-36.55,145.9833,7.39,71,5,0.8,AU,1684449327
526,nadym,65.5333,72.5167,7.52,73,99,8.02,RU,1684449327
527,yuli,9.6989,10.2744,30.25,51,98,2.12,NG,1684449328
528,burla,21.5,83.8667,26.02,45,2,0.97,IN,1684449328
529,killybegs,54.6333,-8.45,9.95,94,4,3.38,IE,1684449329
530,freeport,40.6576,-73.5832,15.17,60,0,6.69,US,1684449329
531,umm lajj,25.0213,37.2685,25.54,80,0,1.45,SA,1684449129
532,sicamous,50.8331,-118.9856,31.22,23,2,2.39,CA,1684449331
533,manzanillo,20.3433,-77.1167,27.91,74,63,1.9,CU,1684449331
534,upington,-28.4478,21.2561,12.21,47,0,4.12,ZA,1684449332
535,mirabad,30.4362,61.8383,29.27,12,5,3.22,AF,1684449332
536,ambon,-3.6954,128.1814,28.08,69,40,3.09,ID,1684449332
537,leh,34.1667,77.5833,4.62,84,100,2.05,IN,1684449333
538,behshahr,36.6923,53.5526,17.21,75,7,2.7,IR,1684449333
539,marsh harbour,26.5412,-77.0636,26.82,74,19,3.47,BS,1684449319
540,krasnovishersk,60.4078,57.082,8.95,63,25,1.91,RU,1684449146
541,labuhan,-6.8844,112.2051,24.03,86,85,2.8,ID,1684449335
542,tadine,-21.55,167.8833,23.23,64,100,7.6,NC,1684449335
543,painesville,41.7245,-81.2457,21.86,49,0,6.17,US,1684449071
544,alta,69.9689,23.2717,5.66,61,20,3.09,NO,1684449337
